[
  { "name": "Ahmedabad, Gujarat, India", "city": "Ahmedabad", "state": "Gujarat", "country": "India", "lat": 23.0225, "lng": 72.5714, "timezone": "Asia/Kolkata" },
  { "name": "Mumbai, Maharashtra, India", "city": "Mumbai", "state": "Maharashtra", "country": "India", "lat": 19.0760, "lng": 72.8777, "timezone": "Asia/Kolkata" },
  { "name": "Delhi, India", "city": "Delhi", "state": "Delhi", "country": "India", "lat": 28.6139, "lng": 77.2090, "timezone": "Asia/Kolkata" },
  { "name": "Bengaluru, Karnataka, India", "city": "Bengaluru", "state": "Karnataka", "country": "India", "lat": 12.9716, "lng": 77.5946, "timezone": "Asia/Kolkata" },
  { "name": "Chennai, Tamil Nadu, India", "city": "Chennai", "state": "Tamil Nadu", "country": "India", "lat": 13.0827, "lng": 80.2707, "timezone": "Asia/Kolkata" },
  { "name": "Hyderabad, Telangana, India", "city": "Hyderabad", "state": "Telangana", "country": "India", "lat": 17.3850, "lng": 78.4867, "timezone": "Asia/Kolkata" },
  { "name": "Pune, Maharashtra, India", "city": "Pune", "state": "Maharashtra", "country": "India", "lat": 18.5204, "lng": 73.8567, "timezone": "Asia/Kolkata" },
  { "name": "Kolkata, West Bengal, India", "city": "Kolkata", "state": "West Bengal", "country": "India", "lat": 22.5726, "lng": 88.3639, "timezone": "Asia/Kolkata" },
  { "name": "Surat, Gujarat, India", "city": "Surat", "state": "Gujarat", "country": "India", "lat": 21.1702, "lng": 72.8311, "timezone": "Asia/Kolkata" },
  { "name": "Jaipur, Rajasthan, India", "city": "Jaipur", "state": "Rajasthan", "country": "India", "lat": 26.9124, "lng": 75.7873, "timezone": "Asia/Kolkata" },
  { "name": "London, England, UK", "city": "London", "state": "England", "country": "United Kingdom", "lat": 51.5072, "lng": -0.1276, "timezone": "Europe/London" },
  { "name": "Toronto, Ontario, Canada", "city": "Toronto", "state": "Ontario", "country": "Canada", "lat": 43.6532, "lng": -79.3832, "timezone": "America/Toronto" },
  { "name": "New York, New York, USA", "city": "New York", "state": "New York", "country": "United States", "lat": 40.7128, "lng": -74.0060, "timezone": "America/New_York" },
  { "name": "Dubai, United Arab Emirates", "city": "Dubai", "state": "Dubai", "country": "United Arab Emirates", "lat": 25.2048, "lng": 55.2708, "timezone": "Asia/Dubai" },
  { "name": "Singapore", "city": "Singapore", "state": "Singapore", "country": "Singapore", "lat": 1.3521, "lng": 103.8198, "timezone": "Asia/Singapore" }
]
